Hospital,City,Latitude,Longitude,,
A,Bemidgi,47.4785418,-94.8907869,,
B,Warroad,48.905266,-95.314404,,
C,Mora,45.8769031,-93.2938352,,
D,Saint Paul,44.9497487,-93.0931028,,
E,Minneapolis,44.9772995,-93.2654692,,
F,Grand Rapids,47.2372,-93.5302,,
G,Saint Cloud,45.5579,-94.1632,,
H,Pipestone,43.9986,-96.3128,,
I,Duluth,46.7867,-92.1005,,
J,Melrose,45.6747,-94.8075,,
K,Mankato,44.1636,-93.9994,,
